data = '[{"station":"彰化縣-二林","TWD97Lon":"120.4096530000","TWD97Lat":"23.9251750000"},{"station":"新北市-三重","TWD97Lon":"121.4810280000","TWD97Lat":"25.0689500000"},{"station":"苗栗縣-三義","TWD97Lon":"120.7588330000","TWD97Lat":"24.3829420000"},{"station":"新北市-土城","TWD97Lon":"121.4518610000","TWD97Lat":"24.9825280000"},{"station":"臺北市-士林","TWD97Lon":"121.5145000000","TWD97Lat":"25.1059170000"},{"station":"臺北市-大同","TWD97Lon":"121.5133110000","TWD97Lat":"25.0632000000"},{"station":"臺中市-大里","TWD97Lon":"120.6776890000","TWD97Lat":"24.0996110000"},{"station":"桃園市-大園","TWD97Lon":"121.2018110000","TWD97Lat":"25.0603440000"},{"station":"高雄市-大寮","TWD97Lon":"120.4253110000","TWD97Lat":"22.5641360000"},{"station":"高雄市-小港","TWD97Lon":"120.3377360000","TWD97Lat":"22.5658330000"},{"station":"臺北市-中山","TWD97Lon":"121.5265280000","TWD97Lat":"25.0623610000"},{"station":"桃園市-中壢","TWD97Lon":"121.2216670000","TWD97Lat":"24.9532780000"},{"station":"高雄市-仁武","TWD97Lon":"120.3326310000","TWD97Lat":"22.6890560000"},{"station":"雲林縣-斗六","TWD97Lon":"120.5449940000","TWD97Lat":"23.7118530000"},{"station":"宜蘭縣-冬山","TWD97Lon":"121.7929280000","TWD97Lat":"24.6322030000"},{"station":"臺北市-古亭","TWD97Lon":"121.5295560000","TWD97Lat":"25.0206080000"},{"station":"高雄市-左營","TWD97Lon":"120.2929170000","TWD97Lat":"22.6748610000"},{"station":"桃園市-平鎮","TWD97Lon":"121.2049810000","TWD97Lat":"24.9542080000"},{"station":"新北市-永和","TWD97Lon":"121.5163060000","TWD97Lat":"25.0170000000"},{"station":"臺南市-安南","TWD97Lon":"120.2183330000","TWD97Lat":"23.0483330000"},{"station":"嘉義縣-朴子","TWD97Lon":"120.2473500000","TWD97Lat":"23.4653080000"},{"station":"新北市-汐止","TWD97Lon":"121.6408000000","TWD97Lat":"25.0656690000"},{"station":"南投縣-竹山","TWD97Lon":"120.6773060000","TWD97Lat":"23.7563890000"},{"station":"新竹縣-竹東","TWD97Lon":"121.0889030000","TWD97Lat":"24.7406440000"},{"station":"臺中市-西屯","TWD97Lon":"120.6169170000","TWD97Lat":"24.1621970000"},{"station":"臺中市-沙鹿","TWD97Lon":"120.5687940000","TWD97Lat":"24.2256280000"},{"station":"宜蘭縣-宜蘭","TWD97Lon":"121.7463940000","TWD97Lat":"24.7479170000"},{"station":"臺中市-忠明","TWD97Lon":"120.6410920000","TWD97Lat":"24.1519580000"},{"station":"臺北市-松山","TWD97Lon":"121.5786110000","TWD97Lat":"25.0500000000"},{"station":"新北市-板橋","TWD97Lon":"121.4586670000","TWD97Lat":"25.0129720000"},{"station":"新北市-林口","TWD97Lon":"121.3657030000","TWD97Lat":"25.0785700000"},{"station":"高雄市-林園","TWD97Lon":"120.4117500000","TWD97Lat":"22.4795000000"},{"station":"花蓮縣-花蓮","TWD97Lon":"121.5997690000","TWD97Lat":"23.9713060000"},{"station":"金門縣-金門","TWD97Lon":"118.3122560000","TWD97Lat":"24.4321330000"},{"station":"高雄市-前金","TWD97Lon":"120.2880860000","TWD97Lat":"22.6325670000"},{"station":"高雄市-前鎮","TWD97Lon":"120.3120170000","TWD97Lat":"22.6087110000"},{"station":"南投縣-南投","TWD97Lon":"120.6853060000","TWD97Lat":"23.9130000000"},{"station":"屏東縣-屏東","TWD97Lon":"120.4880330000","TWD97Lat":"22.6730810000"},{"station":"屏東縣-恆春","TWD97Lon":"120.7889280000","TWD97Lat":"21.9580690000"},{"station":"高雄市-美濃","TWD97Lon":"120.5305420000","TWD97Lat":"22.8835830000"},{"station":"苗栗縣-苗栗","TWD97Lon":"120.8202000000","TWD97Lat":"24.5652690000"},{"station":"南投縣-埔里","TWD97Lon":"120.9679030000","TWD97Lat":"23.9688420000"},{"station":"桃園市-桃園","TWD97Lon":"121.3044170000","TWD97Lat":"24.9956670000"},{"station":"澎湖縣-馬公","TWD97Lon":"119.5661580000","TWD97Lat":"23.5690310000"},{"station":"連江縣-馬祖","TWD97Lon":"119.9525000000","TWD97Lat":"26.1536110000"},{"station":"基隆市-基隆","TWD97Lon":"121.7600560000","TWD97Lat":"25.1291670000"},{"station":"雲林縣-崙背","TWD97Lon":"120.3487420000","TWD97Lat":"23.7575470000"},{"station":"新北市-淡水","TWD97Lon":"121.4492390000","TWD97Lat":"25.1645000000"},{"station":"雲林縣-麥寮","TWD97Lon":"120.2518250000","TWD97Lat":"23.7535060000"},{"station":"臺南市-善化","TWD97Lon":"120.2971420000","TWD97Lat":"23.1150970000"},{"station":"新北市-富貴角","TWD97Lon":"121.5379750000","TWD97Lat":"25.2974360000"},{"station":"高雄市-復興","TWD97Lon":"120.3075640000","TWD97Lat":"22.6053860000"},{"station":"新竹縣-湖口","TWD97Lon":"121.0386530000","TWD97Lat":"24.9001420000"},{"station":"新北市-菜寮","TWD97Lon":"121.4938060000","TWD97Lat":"25.0726110000"},{"station":"臺北市-陽明","TWD97Lon":"121.5295830000","TWD97Lat":"25.1827220000"},{"station":"新竹市-新竹","TWD97Lon":"120.9720750000","TWD97Lat":"24.8056190000"},{"station":"新北市-新店","TWD97Lon":"121.5377780000","TWD97Lat":"24.9772220000"},{"station":"新北市-新莊","TWD97Lon":"121.4325000000","TWD97Lat":"25.0379720000"},{"station":"嘉義縣-新港","TWD97Lon":"120.3455310000","TWD97Lat":"23.5548390000"},{"station":"臺南市-新營","TWD97Lon":"120.3172500000","TWD97Lat":"23.3056330000"},{"station":"高雄市-楠梓","TWD97Lon":"120.3282890000","TWD97Lat":"22.7336670000"},{"station":"新北市-萬里","TWD97Lon":"121.6898810000","TWD97Lat":"25.1796670000"},{"station":"臺北市-萬華","TWD97Lon":"121.5079720000","TWD97Lat":"25.0465030000"},{"station":"嘉義市-嘉義","TWD97Lon":"120.4408330000","TWD97Lat":"23.4627780000"},{"station":"彰化縣-彰化","TWD97Lon":"120.5415190000","TWD97Lat":"24.0660000000"},{"station":"雲林縣-臺西","TWD97Lon":"120.2028420000","TWD97Lat":"23.7175330000"},{"station":"臺東縣-臺東","TWD97Lon":"121.1504500000","TWD97Lat":"22.7553580000"},{"station":"臺南市-臺南","TWD97Lon":"120.2026170000","TWD97Lat":"22.9845810000"},{"station":"高雄市-鳳山","TWD97Lon":"120.3580830000","TWD97Lat":"22.6273920000"},{"station":"屏東縣-潮州","TWD97Lon":"120.5611750000","TWD97Lat":"22.5231080000"},{"station":"彰化縣-線西","TWD97Lon":"120.4690610000","TWD97Lat":"24.1316720000"},{"station":"高雄市-橋頭","TWD97Lon":"120.3056890000","TWD97Lat":"22.7575060000"},{"station":"苗栗縣-頭份","TWD97Lon":"120.8985720000","TWD97Lat":"24.6969690000"},{"station":"桃園市-龍潭","TWD97Lon":"121.2163500000","TWD97Lat":"24.8638690000"},{"station":"臺中市-豐原","TWD97Lon":"120.7417110000","TWD97Lat":"24.2565860000"},{"station":"臺東縣-關山","TWD97Lon":"121.1619330000","TWD97Lat":"23.0450830000"},{"station":"桃園市-觀音","TWD97Lon":"121.0827610000","TWD97Lat":"25.0355030000"}]';